{
    "242": {
        "id": 242,
        "coordinates": [
            37.63190639,
            55.83163773
        ],
        "title": "Павильон №66. Выставочно-культурный и экспозиционный центр Республики Узбекистан ",
        "title_short": "Павильон №66. Выставочно-культ...",
        "color": "#336AF7",
        "icon": "pavilion"
    },
    "243": {
        "id": 243,
        "coordinates": [
            37.63383758,
            55.82997764
        ],
        "title": "Павильон №71. Дворец госуслуг (МФЦ) ",
        "title_short": "Павильон №71. Дворец госуслуг ...",
        "color": "#336AF7",
        "icon": "pavilion"
    },
    "244": {
        "id": 244,
        "coordinates": [
            37.64250237,
            55.82815679
        ],
        "title": "КПП «2-й Северный»",
        "title_short": "КПП «2-й Северный»",
        "color": "#000000",
        "icon": "entry"
    },
    "245": {
        "id": 245,
        "coordinates": [
            37.640560450672,
            55.827124152019
        ],
        "title": "КПП «1-й Северный»",
        "title_short": "КПП «1-й Северный»",
        "color": "#000000",
        "icon": "entry"
    },
    "246": {
        "id": 246,
        "coordinates": [
            37.627645343893,
            55.82805480654
        ],
        "title": "Кафе «Андерсон на даче»",
        "title_short": "Кафе «Андерсон на даче»",
        "color": "#E8773F",
        "icon": "restaurant",
        "interests": 57344,
        "wishes": 322
    },
    "249": {
        "id": 249,
        "coordinates": [
            37.631989732327,
            55.834982245681
        ],
        "title": "«Техноград». Инновационно-образовательный комплекс",
        "title_short": "«Техноград». Инновационно-обра...",
        "color": "#336AF7",
        "icon": "pavilion"
    },
    "253": {
        "id": 253,
        "coordinates": [
            37.616328941817,
            55.836326099174
        ],
        "title": "Павильон №28. Эколого-просветительский центр «Пчеловодство»",
        "title_short": "Павильон №28. Эколого-просвети...",
        "color": "#336AF7",
        "icon": "pavilion"
    },
    "254": {
        "id": 254,
        "coordinates": [
            37.63452936254,
            55.8333755382
        ],
        "title": "Дом культуры",
        "title_short": "Дом культуры",
        "color": "#F0AF18",
        "icon": "entertainment",
        "interests": 112
    },
    "257": {
        "id": 257,
        "coordinates": [
            37.6216777,
            55.82704796
        ],
        "title": "КПП «Хованский»",
        "title_short": "КПП «Хованский»",
        "color": "#000000",
        "icon": "entry"
    },
    "258": {
        "id": 258,
        "coordinates": [
            37.62834299,
            55.82907903
        ],
        "title": "Павильон №9. Театр сказок",
        "title_short": "Павильон №9. Театр сказок",
        "color": "#F0AF18",
        "icon": "entertainment",
        "interests": 112
    },
    "259": {
        "id": 259,
        "coordinates": [
            37.62965459,
            55.82925679
        ],
        "title": "Павильон №6. Выставочно-торговый центр Республики Абхазия",
        "title_short": "Павильон №6. Выставочно-торгов...",
        "color": "#336AF7",
        "icon": "pavilion"
    },
    "261": {
        "id": 261,
        "coordinates": [
            37.631155194656,
            55.834199909907
        ],
        "title": "Павильон «Умный город»",
        "title_short": "Павильон «Умный город»",
        "color": "#336AF7",
        "icon": "pavilion"
    },
    "262": {
        "id": 262,
        "coordinates": [
            37.61720913573,
            55.834420380762
        ],
        "title": "Мичуринский сад",
        "title_short": "Мичуринский сад",
        "color": "#59B36A",
        "icon": "green-zone",
        "interests": 2031616,
        "wishes": 321
    },
    "267": {
        "id": 267,
        "coordinates": [
            37.616848471639,
            55.839585073454
        ],
        "title": "Павильон №36. Музей кино",
        "title_short": "Павильон №36. Музей кино",
        "color": "#336AF7",
        "icon": "museum",
        "interests": 13,
        "wishes": 384
    },
    "268": {
        "id": 268,
        "coordinates": [
            37.62119793831,
            55.837042984248
        ],
        "title": "Павильон №53-54. Музей Гаража особого назначения ФСО России",
        "title_short": "Павильон №53-54. Музей Гаража ...",
        "color": "#336AF7",
        "icon": "museum",
        "interests": 13,
        "wishes": 384
    },
    "269": {
        "id": 269,
        "coordinates": [
            37.621895312114,
            55.835078576371
        ],
        "title": "Павильон №34. Центр «Космонавтика и авиация»",
        "title_short": "Павильон №34. Центр «Космонавт...",
        "color": "#336AF7",
        "icon": "museum",
        "interests": 13,
        "wishes": 384
    },
    "270": {
        "id": 270,
        "coordinates": [
            37.619198620926,
            55.837203664329
        ],
        "title": "Павильон №51. Мясная промышленность",
        "title_short": "Павильон №51. Мясная промышленность",
        "color": "#336AF7",
        "icon": "pavilion"
    },
    "271": {
        "id": 271,
        "coordinates": [
            37.61940975791,
            55.837750888148
        ],
        "title": "Павильон №50. Молочная промышленность",
        "title_short": "Павильон №50. Молочная промышл...",
        "color": "#336AF7",
        "icon": "pavilion"
    },
    "272": {
        "id": 272,
        "coordinates": [
            37.62991744,
            55.82962212
        ],
        "title": "Павильон №10. Выставочно-торговый центр Республики Молдова",
        "title_short": "Павильон №10. Выставочно-торго...",
        "color": "#336AF7",
        "icon": "pavilion"
    },
    "273": {
        "id": 273,
        "coordinates": [
            37.62899476677,
            55.830197436339
        ],
        "title": "Павильон №11. Выставочно-торговый центр Республики Казахстан ",
        "title_short": "Павильон №11. Выставочно-торго...",
        "color": "#336AF7",
        "icon": "pavilion"
    },
    "274": {
        "id": 274,
        "coordinates": [
            37.628395159311,
            55.830576119964
        ],
        "title": "Павильон №12",
        "title_short": "Павильон №12",
        "color": "#336AF7",
        "icon": "pavilion"
    },
    "275": {
        "id": 275,
        "coordinates": [
            37.627951291877,
            55.830949157024
        ],
        "title": "Павильон №13. Музей Востока ",
        "title_short": "Павильон №13. Музей Востока ",
        "color": "#336AF7",
        "icon": "museum",
        "interests": 13,
        "wishes": 384
    },
    "276": {
        "id": 276,
        "coordinates": [
            37.627485883967,
            55.831255814421
        ],
        "title": "Павильон №14. Выставочно-торговый центр Азербайджанской Республики",
        "title_short": "Павильон №14. Выставочно-торго...",
        "color": "#336AF7",
        "icon": "pavilion"
    },
    "277": {
        "id": 277,
        "coordinates": [
            37.629502906771,
            55.828733661367
        ],
        "title": "Павильон №5. Музей городского хозяйства Москвы",
        "title_short": "Павильон №5. Музей городского ...",
        "color": "#336AF7",
        "icon": "museum",
        "interests": 13,
        "wishes": 384
    },
    "278": {
        "id": 278,
        "coordinates": [
            37.622850180688,
            55.830577444399
        ],
        "title": "Павильон №16",
        "title_short": "Павильон №16",
        "color": "#336AF7",
        "icon": "pavilion"
    },
    "279": {
        "id": 279,
        "coordinates": [
            37.624068975794,
            55.837305070629
        ],
        "title": "Павильон №47. Дом ремесел ",
        "title_short": "Павильон №47. Дом ремесел ",
        "color": "#F0AF18",
        "icon": "entertainment",
        "interests": 112
    },
    "280": {
        "id": 280,
        "coordinates": [
            37.631385818836,
            55.828720332498
        ],
        "title": "Павильон №2. Робостанция",
        "title_short": "Павильон №2. Робостанция",
        "color": "#F0AF18",
        "icon": "entertainment",
        "interests": 112
    },
    "281": {
        "id": 281,
        "coordinates": [
            37.622444804442,
            55.83328713903
        ],
        "title": "Павильон №20. Центральный дом автоспорта",
        "title_short": "Павильон №20. Центральный дом ...",
        "color": "#336AF7",
        "icon": "pavilion"
    },
    "282": {
        "id": 282,
        "coordinates": [
            37.620382551377,
            55.832417881432
        ],
        "title": "Павильон №21",
        "title_short": "Павильон №21",
        "color": "#336AF7",
        "icon": "pavilion"
    },
    "283": {
        "id": 283,
        "coordinates": [
            37.616493345582,
            55.832306348855
        ],
        "title": "Павильон №22. Скалолазный центр BigWall ",
        "title_short": "Павильон №22. Скалолазный цент...",
        "color": "#7849DC",
        "icon": "sports-ground",
        "interests": 16778752
    },
    "284": {
        "id": 284,
        "coordinates": [
            37.619604863491,
            55.833722474178
        ],
        "title": "Павильон №25 «Нефть»",
        "title_short": "Павильон №25 «Нефть»",
        "color": "#336AF7",
        "icon": "museum",
        "interests": 13,
        "wishes": 384
    },
    "285": {
        "id": 285,
        "coordinates": [
            37.624326241565,
            55.838083621973
        ],
        "title": "Павильон №43. Показательная конюшня Центра национальных конных традиций",
        "title_short": "Павильон №43. Показательная ко...",
        "color": "#336AF7",
        "icon": "pavilion"
    },
    "286": {
        "id": 286,
        "coordinates": [
            37.621557355369,
            55.83435827678
        ],
        "title": "Павильон №26. Музей Транспорта Москвы",
        "title_short": "Павильон №26. Музей Транспорта...",
        "color": "#336AF7",
        "icon": "museum",
        "interests": 13,
        "wishes": 384
    },
    "287": {
        "id": 287,
        "coordinates": [
            37.623387698598,
            55.838368279746
        ],
        "title": "Павильон №42. Центр национальных конных традиций",
        "title_short": "Павильон №42. Центр национальн...",
        "color": "#336AF7",
        "icon": "pavilion"
    },
    "288": {
        "id": 288,
        "coordinates": [
            37.620687873967,
            55.838155129201
        ],
        "title": "Павильон №40. Школа пекарей",
        "title_short": "Павильон №40. Школа пекарей",
        "color": "#336AF7",
        "icon": "pavilion"
    },
    "289": {
        "id": 289,
        "coordinates": [
            37.61285064,
            55.83458037
        ],
        "title": "Павильон №27. Физкультура и спорт",
        "title_short": "Павильон №27. Физкультура и спорт",
        "color": "#336AF7",
        "icon": "pavilion"
    },
    "290": {
        "id": 290,
        "coordinates": [
            37.630414854656,
            55.828637268985
        ],
        "title": "Павильон №4. Выставочно-торговый центр Киргизской Республики ",
        "title_short": "Павильон №4. Выставочно-торгов...",
        "color": "#336AF7",
        "icon": "pavilion"
    },
    "292": {
        "id": 292,
        "coordinates": [
            37.618237850901,
            55.835746816709
        ],
        "title": "Павильон №29. Эколого-просветительский центр «Цветоводство»",
        "title_short": "Павильон №29. Эколого-просвети...",
        "color": "#336AF7",
        "icon": "pavilion"
    },
    "293": {
        "id": 293,
        "coordinates": [
            37.618640185131,
            55.834936523521
        ],
        "title": "Павильон №30. Центр современных биотехнологий Музей «Биотех»",
        "title_short": "Павильон №30. Центр современны...",
        "color": "#336AF7",
        "icon": "museum",
        "interests": 13,
        "wishes": 384
    },
    "294": {
        "id": 294,
        "coordinates": [
            37.618683096057,
            55.839723428625
        ],
        "title": "Павильон №37. Птицеводство",
        "title_short": "Павильон №37. Птицеводство",
        "color": "#336AF7",
        "icon": "pavilion"
    },
    "295": {
        "id": 295,
        "coordinates": [
            37.619750620926,
            55.834942854166
        ],
        "title": "Павильон №31 «Геология». Биологический музей им. К.А.Тимирязева",
        "title_short": "Павильон №31 «Геология». Биоло...",
        "color": "#336AF7",
        "icon": "museum",
        "interests": 13,
        "wishes": 384
    },
    "297": {
        "id": 297,
        "coordinates": [
            37.621527493279,
            55.831019170953
        ],
        "title": "Латвийский сквер",
        "title_short": "Латвийский сквер",
        "color": "#59B36A",
        "icon": "green-zone",
        "interests": 2031616,
        "wishes": 321
    },
    "298": {
        "id": 298,
        "coordinates": [
            37.61741190936,
            55.828614767196
        ],
        "title": "Летняя эстрада в парке «Останкино»",
        "title_short": "Летняя эстрада в парке «Останкино»",
        "color": "#F0AF18",
        "icon": "entertainment",
        "interests": 112
    },
    "301": {
        "id": 301,
        "coordinates": [
            37.62579238,
            55.83533326
        ],
        "title": "Ресторан «Московское небо»",
        "title_short": "Ресторан «Московское небо»",
        "color": "#E8773F",
        "icon": "restaurant",
        "interests": 57344,
        "wishes": 322
    },
    "303": {
        "id": 303,
        "coordinates": [
            37.622989210688,
            55.832168679425
        ],
        "title": "Интерактивный музейный комплекс «Буран»",
        "title_short": "Интерактивный музейный комплек...",
        "color": "#336AF7",
        "icon": "museum",
        "interests": 13,
        "wishes": 384
    },
    "304": {
        "id": 304,
        "coordinates": [
            37.62642503,
            55.83730741
        ],
        "title": "Мануфактура «Дымов керамика»",
        "title_short": "Мануфактура «Дымов керамика»",
        "color": "#F0AF18",
        "icon": "workshop",
        "interests": 384,
        "wishes": 128
    },
    "305": {
        "id": 305,
        "coordinates": [
            37.617230594418,
            55.829042363796
        ],
        "title": "Кафе «Русский чай»",
        "title_short": "Кафе «Русский чай»",
        "color": "#E8773F",
        "icon": "restaurant",
        "interests": 57344,
        "wishes": 322
    },
    "306": {
        "id": 306,
        "coordinates": [
            37.62566328,
            55.8379641
        ],
        "title": "Кафе «Свадьба соек»",
        "title_short": "Кафе «Свадьба соек»",
        "color": "#E8773F",
        "icon": "restaurant",
        "interests": 57344,
        "wishes": 322
    },
    "308": {
        "id": 308,
        "coordinates": [
            37.625053215006,
            55.82713493101
        ],
        "title": "Кафе «Урожай»",
        "title_short": "Кафе «Урожай»",
        "color": "#E8773F",
        "icon": "restaurant",
        "interests": 57344,
        "wishes": 322
    },
    "309": {
        "id": 309,
        "coordinates": [
            37.615594445344,
            55.838875736297
        ],
        "title": "Минский сквер",
        "title_short": "Минский сквер",
        "color": "#59B36A",
        "icon": "green-zone",
        "interests": 2031616,
        "wishes": 321
    },
    "311": {
        "id": 311,
        "coordinates": [
            37.629831608836,
            55.827077772158
        ],
        "title": "Аттракцион «Круговая кинопанорама»",
        "title_short": "Аттракцион «Круговая кинопанорама»",
        "color": "#F0AF18",
        "icon": "entertainment",
        "interests": 112
    },
    "313": {
        "id": 313,
        "coordinates": [
            37.61881033,
            55.83698006
        ],
        "title": "Нальчикский участок",
        "title_short": "Нальчикский участок",
        "color": "#59B36A",
        "icon": "green-zone",
        "interests": 2031616,
        "wishes": 321
    },
    "315": {
        "id": 315,
        "coordinates": [
            37.636094476295,
            55.830228421683
        ],
        "title": "Кисловодский участок",
        "title_short": "Кисловодский участок",
        "color": "#59B36A",
        "icon": "green-zone",
        "interests": 2031616,
        "wishes": 321
    },
    "316": {
        "id": 316,
        "coordinates": [
            37.6340695,
            55.82617414
        ],
        "title": "Колхозный сад",
        "title_short": "Колхозный сад",
        "color": "#59B36A",
        "icon": "green-zone",
        "interests": 2031616,
        "wishes": 321
    },
    "318": {
        "id": 318,
        "coordinates": [
            37.61760628,
            55.82680892
        ],
        "title": "Детская площадка на главной аллее парка «Останкино»",
        "title_short": "Детская площадка на главной ал...",
        "color": "#59B36A",
        "icon": "playground",
        "interests": 112
    },
    "319": {
        "id": 319,
        "coordinates": [
            37.61625149459,
            55.835205301115
        ],
        "title": "Храм-часовня святого Василия Великого",
        "title_short": "Храм-часовня святого Василия В...",
        "color": "#000000",
        "icon": "temple",
        "interests": 2031616,
        "wishes": 385
    },
    "322": {
        "id": 322,
        "coordinates": [
            37.617418349786,
            55.825584188258
        ],
        "title": "Мемориал-стела «Врата победы»",
        "title_short": "Мемориал-стела «Врата победы»",
        "color": "#336AF7",
        "icon": "monument",
        "interests": 262144,
        "wishes": 321
    },
    "323": {
        "id": 323,
        "coordinates": [
            37.630298790213,
            55.834419236619
        ],
        "title": "Макет Москвы",
        "title_short": "Макет Москвы",
        "color": "#336AF7",
        "icon": "museum",
        "interests": 13,
        "wishes": 384
    },
    "324": {
        "id": 324,
        "coordinates": [
            37.630562150676,
            55.833153833616
        ],
        "title": "Кафе «Пироги»",
        "title_short": "Кафе «Пироги»",
        "color": "#E8773F",
        "icon": "restaurant",
        "interests": 57344,
        "wishes": 322
    },
    "325": {
        "id": 325,
        "coordinates": [
            37.622841777221,
            55.834450674338
        ],
        "title": "Макет ракеты-носителя «Восток»",
        "title_short": "Макет ракеты-носителя «Восток»",
        "color": "#F0AF18",
        "icon": "entertainment",
        "interests": 112
    },
    "327": {
        "id": 327,
        "coordinates": [
            37.614378694893,
            55.838373877518
        ],
        "title": "Павильон №35. Главтабак",
        "title_short": "Павильон №35. Главтабак",
        "color": "#336AF7",
        "icon": "pavilion"
    },
    "329": {
        "id": 329,
        "coordinates": [
            37.6143793,
            55.83518426
        ],
        "title": "Sky Town. Высотный веревочный парк ",
        "title_short": "Sky Town. Высотный веревочный парк ",
        "color": "#F0AF18",
        "icon": "entertainment",
        "interests": 112
    },
    "331": {
        "id": 331,
        "coordinates": [
            37.626190461722,
            55.838925123039
        ],
        "title": "Городская ферма",
        "title_short": "Городская ферма",
        "color": "#F0AF18",
        "icon": "entertainment",
        "interests": 112
    },
    "332": {
        "id": 332,
        "coordinates": [
            37.63692731,
            55.82842103
        ],
        "title": "Игровая площадка, адаптированная для детей с ограниченными возможностями",
        "title_short": "Игровая площадка, адаптированн...",
        "color": "#59B36A",
        "icon": "playground",
        "interests": 112
    },
    "333": {
        "id": 333,
        "coordinates": [
            37.635770025532,
            55.833255124972
        ],
        "title": "Фантастический город. Детская площадка",
        "title_short": "Фантастический город. Детская ...",
        "color": "#59B36A",
        "icon": "playground",
        "interests": 112
    },
    "334": {
        "id": 334,
        "coordinates": [
            37.63772804,
            55.8262103
        ],
        "title": "Арка Главного входа",
        "title_short": "Арка Главного входа",
        "color": "#000000",
        "icon": "entrance"
    },
    "335": {
        "id": 335,
        "coordinates": [
            37.636382771476,
            55.826978865903
        ],
        "title": "14 фонтанов Центральной аллеи",
        "title_short": "14 фонтанов Центральной аллеи",
        "color": "#336AF7",
        "icon": "fountain",
        "interests": 65536,
        "wishes": 321
    },
    "336": {
        "id": 336,
        "coordinates": [
            37.626435845819,
            55.835758917721
        ],
        "title": "Дворец бракосочетания",
        "title_short": "Дворец бракосочетания",
        "color": "#336AF7",
        "icon": "pavilion"
    },
    "337": {
        "id": 337,
        "coordinates": [
            37.617986975968,
            55.829951030131
        ],
        "title": "Зеленый бельведер в парке «Останкино»",
        "title_short": "Зеленый бельведер в парке «Ост...",
        "color": "#59B36A",
        "icon": "picnic",
        "interests": 32768,
        "wishes": 321
    },
    "338": {
        "id": 338,
        "coordinates": [
            37.61747718,
            55.83150517
        ],
        "title": "Зеленый театр",
        "title_short": "Зеленый театр",
        "color": "#F0AF18",
        "icon": "entertainment",
        "interests": 112
    },
    "340": {
        "id": 340,
        "coordinates": [
            37.619370996031,
            55.832978260687
        ],
        "title": "Павильон №23. «Москвариум»",
        "title_short": "Павильон №23. «Москвариум»",
        "color": "#F0AF18",
        "icon": "entertainment",
        "interests": 112
    },
    "341": {
        "id": 341,
        "coordinates": [
            37.61478978,
            55.8347187
        ],
        "title": "Комплекс спортивных площадок в аренду",
        "title_short": "Комплекс спортивных площадок в...",
        "color": "#7849DC",
        "icon": "sports-ground",
        "interests": 16778752
    },
    "342": {
        "id": 342,
        "coordinates": [
            37.625440123016,
            55.840664718015
        ],
        "title": "Павильон №44 ",
        "title_short": "Павильон №44 ",
        "color": "#336AF7",
        "icon": "pavilion"
    },
    "343": {
        "id": 343,
        "coordinates": [
            37.627766315319,
            55.838153184875
        ],
        "title": "Павильон №46",
        "title_short": "Павильон №46",
        "color": "#336AF7",
        "icon": "pavilion"
    },
    "344": {
        "id": 344,
        "coordinates": [
            37.625635385393,
            55.832037943113
        ],
        "title": "Павильон №18. Выставочно-торговый центр Республики Беларусь",
        "title_short": "Павильон №18. Выставочно-торго...",
        "color": "#336AF7",
        "icon": "pavilion"
    },
    "345": {
        "id": 345,
        "coordinates": [
            37.62398743841,
            55.831345856154
        ],
        "title": "Павильон №17. Галерея «Лес»",
        "title_short": "Павильон №17. Галерея «Лес»",
        "color": "#F0AF18",
        "icon": "entertainment",
        "interests": 112
    },
    "346": {
        "id": 346,
        "coordinates": [
            37.622465009786,
            55.837686826369
        ],
        "title": "Павильон №48. «Главпиво»",
        "title_short": "Павильон №48. «Главпиво»",
        "color": "#336AF7",
        "icon": "pavilion"
    },
    "347": {
        "id": 347,
        "coordinates": [
            37.626659985369,
            55.831658713465
        ],
        "title": "Павильон №15. Музей Олимпийского движения России ",
        "title_short": "Павильон №15. Музей Олимпийско...",
        "color": "#336AF7",
        "icon": "pavilion"
    },
    "348": {
        "id": 348,
        "coordinates": [
            37.63402382,
            55.8285299
        ],
        "title": "Павильон №1. Экспозиция Третьяковской галереи  (Центральный)",
        "title_short": "Павильон №1. Экспозиция Третья...",
        "color": "#336AF7",
        "icon": "pavilion"
    },
    "349": {
        "id": 349,
        "coordinates": [
            37.64621973,
            55.82832351
        ],
        "title": "Павильон «Рабочий и колхозница»",
        "title_short": "Павильон «Рабочий и колхозница»",
        "color": "#336AF7",
        "icon": "museum",
        "interests": 13,
        "wishes": 384
    },
    "350": {
        "id": 350,
        "coordinates": [
            37.623119473254,
            55.835123586943
        ],
        "title": "Павильон №55. Музей оптических иллюзий ",
        "title_short": "Павильон №55. Музей оптических...",
        "color": "#F0AF18",
        "icon": "entertainment",
        "interests": 112
    },
    "351": {
        "id": 351,
        "coordinates": [
            37.626987220951,
            55.832749492873
        ],
        "title": "Павильон №58. Музей славянской письменности «Слово»",
        "title_short": "Павильон №58. Музей славянской...",
        "color": "#336AF7",
        "icon": "museum",
        "interests": 13,
        "wishes": 384
    },
    "353": {
        "id": 353,
        "coordinates": [
            37.627904308147,
            55.833202164271
        ],
        "title": "Павильон №59. Политехнический музей",
        "title_short": "Павильон №59. Политехнический музей",
        "color": "#336AF7",
        "icon": "pavilion"
    },
    "354": {
        "id": 354,
        "coordinates": [
            37.633208426909,
            55.833875898425
        ],
        "title": "Омский сквер",
        "title_short": "Омский сквер",
        "color": "#59B36A",
        "icon": "green-zone",
        "interests": 2031616,
        "wishes": 321
    },
    "355": {
        "id": 355,
        "coordinates": [
            37.62819314,
            55.83388521
        ],
        "title": "Павильон №60. Потребительская кооперация",
        "title_short": "Павильон №60. Потребительская ...",
        "color": "#336AF7",
        "icon": "pavilion"
    },
    "356": {
        "id": 356,
        "coordinates": [
            37.63663369,
            55.83082627
        ],
        "title": "Парковка «P5»",
        "title_short": "Парковка «P5»",
        "color": "#000000",
        "icon": "parking"
    },
    "357": {
        "id": 357,
        "coordinates": [
            37.628499989049,
            55.834644648772
        ],
        "title": "Павильон №61. Центросоюз",
        "title_short": "Павильон №61. Центросоюз",
        "color": "#336AF7",
        "icon": "pavilion"
    },
    "358": {
        "id": 358,
        "coordinates": [
            37.627577303942,
            55.83515965964
        ],
        "title": "Павильон №62. Международный центр балета",
        "title_short": "Павильон №62. Международный це...",
        "color": "#336AF7",
        "icon": "pavilion"
    },
    "360": {
        "id": 360,
        "coordinates": [
            37.629120734631,
            55.832849025884
        ],
        "title": "Павильон №64 «Оптика»",
        "title_short": "Павильон №64 «Оптика»",
        "color": "#336AF7",
        "icon": "pavilion"
    },
    "361": {
        "id": 361,
        "coordinates": [
            37.63258820582,
            55.831002217649
        ],
        "title": "Павильон №67. Карелия",
        "title_short": "Павильон №67. Карелия",
        "color": "#336AF7",
        "icon": "museum",
        "interests": 13,
        "wishes": 384
    },
    "362": {
        "id": 362,
        "coordinates": [
            37.63337517,
            55.8307158
        ],
        "title": "Павильон №68. Выставочно-торговый центр Республики Армения",
        "title_short": "Павильон №68. Выставочно-торго...",
        "color": "#336AF7",
        "icon": "pavilion"
    },
    "363": {
        "id": 363,
        "coordinates": [
            37.626822175131,
            55.827716323755
        ],
        "title": "Павильон №7. «Союзмультпарк»",
        "title_short": "Павильон №7. «Союзмультпарк»",
        "color": "#F0AF18",
        "icon": "entertainment",
        "interests": 112
    },
    "366": {
        "id": 366,
        "coordinates": [
            37.6274524,
            55.82876191
        ],
        "title": "Павильон №8. Юные натуралисты",
        "title_short": "Павильон №8. Юные натуралисты",
        "color": "#336AF7",
        "icon": "pavilion"
    },
    "367": {
        "id": 367,
        "coordinates": [
            37.63572174418,
            55.831853809668
        ],
        "title": "Ялтинский участок",
        "title_short": "Ялтинский участок",
        "color": "#59B36A",
        "icon": "green-zone",
        "interests": 2031616,
        "wishes": 321
    },
    "368": {
        "id": 368,
        "coordinates": [
            37.61993408418,
            55.830064910676
        ],
        "title": "Павильон «Книги» РОСИЗО",
        "title_short": "Павильон «Книги» РОСИЗО",
        "color": "#336AF7",
        "icon": "pavilion"
    },
    "369": {
        "id": 369,
        "coordinates": [
            37.633071723704,
            55.827756272756
        ],
        "title": "Южный розарий",
        "title_short": "Южный розарий",
        "color": "#59B36A",
        "icon": "green-zone",
        "interests": 2031616,
        "wishes": 321
    },
    "370": {
        "id": 370,
        "coordinates": [
            37.63432699,
            55.828205
        ],
        "title": "Памятник В.И. Ленину",
        "title_short": "Памятник В.И. Ленину",
        "color": "#336AF7",
        "icon": "monument",
        "interests": 262144,
        "wishes": 321
    },
    "371": {
        "id": 371,
        "coordinates": [
            37.61144757,
            55.82326125
        ],
        "title": "Памятник изобретателю телевизора В.К. Зворыкину",
        "title_short": "Памятник изобретателю телевизо...",
        "color": "#336AF7",
        "icon": "monument",
        "interests": 262144,
        "wishes": 321
    },
    "372": {
        "id": 372,
        "coordinates": [
            37.63568808582,
            55.832799737458
        ],
        "title": "Шахматный клуб",
        "title_short": "Шахматный клуб",
        "color": "#336AF7",
        "icon": "pavilion"
    },
    "375": {
        "id": 375,
        "coordinates": [
            37.616645876671,
            55.834447975327
        ],
        "title": "Памятник И.В. Мичурину",
        "title_short": "Памятник И.В. Мичурину",
        "color": "#336AF7",
        "icon": "monument",
        "interests": 262144,
        "wishes": 321
    },
    "388": {
        "id": 388,
        "coordinates": [
            37.63041508,
            55.83193298
        ],
        "title": "Фудкорт между павильонами №64 и №66",
        "title_short": "Фудкорт между павильонами №64 и №66",
        "color": "#E8773F",
        "icon": "restaurant",
        "interests": 57344,
        "wishes": 322
    },
    "389": {
        "id": 389,
        "coordinates": [
            37.61256355,
            55.83841192
        ],
        "title": "Площадка для воркаута",
        "title_short": "Площадка для воркаута",
        "color": "#7849DC",
        "icon": "sports-ground",
        "interests": 16778752
    },
    "391": {
        "id": 391,
        "coordinates": [
            37.629641082778,
            55.833093986275
        ],
        "title": "Фонтан «Мальчик с рыбой»",
        "title_short": "Фонтан «Мальчик с рыбой»",
        "color": "#336AF7",
        "icon": "fountain",
        "interests": 65536,
        "wishes": 321
    },
    "392": {
        "id": 392,
        "coordinates": [
            37.627878964302,
            55.832293435042
        ],
        "title": "Фонтан «Каменный цветок»",
        "title_short": "Фонтан «Каменный цветок»",
        "color": "#336AF7",
        "icon": "fountain",
        "interests": 65536,
        "wishes": 321
    },
    "393": {
        "id": 393,
        "coordinates": [
            37.61666733,
            55.83831553
        ],
        "title": "Фонтан «Золотой колос»",
        "title_short": "Фонтан «Золотой колос»",
        "color": "#336AF7",
        "icon": "fountain",
        "interests": 65536,
        "wishes": 321
    },
    "394": {
        "id": 394,
        "coordinates": [
            37.6045171,
            55.8251215
        ],
        "title": "Площадка для воркаута рядом со стадионом",
        "title_short": "Площадка для воркаута рядом со...",
        "color": "#7849DC",
        "icon": "sports-ground",
        "interests": 16778752
    },
    "395": {
        "id": 395,
        "coordinates": [
            37.631669389649,
            55.82986543985
        ],
        "title": "Фонтан «Дружба народов»",
        "title_short": "Фонтан «Дружба народов»",
        "color": "#336AF7",
        "icon": "fountain",
        "interests": 65536,
        "wishes": 321
    },
    "397": {
        "id": 397,
        "coordinates": [
            37.63362685,
            55.83181348
        ],
        "title": "Узбекский парк",
        "title_short": "Узбекский парк",
        "color": "#59B36A",
        "icon": "green-zone",
        "interests": 2031616,
        "wishes": 321
    },
    "398": {
        "id": 398,
        "coordinates": [
            37.62657005,
            55.83397258
        ],
        "title": "Павильон №57. «Россия — моя история»",
        "title_short": "Павильон №57. «Россия — моя ис...",
        "color": "#336AF7",
        "icon": "museum",
        "interests": 13,
        "wishes": 384
    },
    "400": {
        "id": 400,
        "coordinates": [
            37.6227504,
            55.83046573
        ],
        "title": "Инфоцентр в павильоне №16 «Гидрометеорология»",
        "title_short": "Инфоцентр в павильоне №16 «Гид...",
        "color": "#000000",
        "icon": "info"
    },
    "402": {
        "id": 402,
        "coordinates": [
            37.624797013393,
            55.835027552428
        ],
        "title": "Днепровский участок",
        "title_short": "Днепровский участок",
        "color": "#59B36A",
        "icon": "green-zone",
        "interests": 2031616,
        "wishes": 321
    },
    "404": {
        "id": 404,
        "coordinates": [
            37.60993673,
            55.8292706
        ],
        "title": "Детская площадка с беседками на Липовой аллее",
        "title_short": "Детская площадка с беседками н...",
        "color": "#59B36A",
        "icon": "playground",
        "interests": 112
    },
    "405": {
        "id": 405,
        "coordinates": [
            37.60531622,
            55.8256197
        ],
        "title": "Детская площадка в парке «Останкино»",
        "title_short": "Детская площадка в парке «Оста...",
        "color": "#59B36A",
        "icon": "playground",
        "interests": 112
    },
    "406": {
        "id": 406,
        "coordinates": [
            37.60846531,
            55.83085841
        ],
        "title": "Детская площадка между Липовой и Спортивной аллеями",
        "title_short": "Детская площадка между Липовой...",
        "color": "#59B36A",
        "icon": "playground",
        "interests": 112
    },
    "407": {
        "id": 407,
        "coordinates": [
            37.6022855,
            55.82809853
        ],
        "title": "Детская площадка для занятий паркуром",
        "title_short": "Детская площадка для занятий п...",
        "color": "#59B36A",
        "icon": "playground",
        "interests": 112
    },
    "409": {
        "id": 409,
        "coordinates": [
            37.62295443,
            55.83242306
        ],
        "title": "Космос. Детская площадка",
        "title_short": "Космос. Детская площадка",
        "color": "#59B36A",
        "icon": "playground",
        "interests": 112
    },
    "410": {
        "id": 410,
        "coordinates": [
            37.61131918,
            55.82758028
        ],
        "title": "Площадка для пикника (большая)",
        "title_short": "Площадка для пикника (большая)",
        "color": "#59B36A",
        "icon": "picnic",
        "interests": 32768,
        "wishes": 321
    },
    "411": {
        "id": 411,
        "coordinates": [
            37.61333066,
            55.8227811
        ],
        "title": "Дворцовый (Останкинский) пруд",
        "title_short": "Дворцовый (Останкинский) пруд",
        "color": "#59B36A",
        "icon": "pond",
        "interests": 524288,
        "wishes": 321
    },
    "412": {
        "id": 412,
        "coordinates": [
            37.60707486,
            55.82762648
        ],
        "title": "Площадка для пикника (малая)",
        "title_short": "Площадка для пикника (малая)",
        "color": "#59B36A",
        "icon": "picnic",
        "interests": 32768,
        "wishes": 321
    },
    "419": {
        "id": 419,
        "coordinates": [
            37.61137319,
            55.83518865
        ],
        "title": "Каскад Каменских прудов (2-й пруд)",
        "title_short": "Каскад Каменских прудов (2-й пруд)",
        "color": "#59B36A",
        "icon": "pond",
        "interests": 524288,
        "wishes": 321
    },
    "420": {
        "id": 420,
        "coordinates": [
            37.61635137,
            55.83808057
        ],
        "title": "Каскад Каменских прудов (3-й пруд)",
        "title_short": "Каскад Каменских прудов (3-й пруд)",
        "color": "#59B36A",
        "icon": "pond",
        "interests": 524288,
        "wishes": 321
    },
    "421": {
        "id": 421,
        "coordinates": [
            37.6222626,
            55.83926941
        ],
        "title": "Каскад Каменских прудов (4-й пруд)",
        "title_short": "Каскад Каменских прудов (4-й пруд)",
        "color": "#59B36A",
        "icon": "pond",
        "interests": 524288,
        "wishes": 321
    },
    "425": {
        "id": 425,
        "coordinates": [
            37.633852604368,
            55.830984577153
        ],
        "title": "Ресторан «Арарат»",
        "title_short": "Ресторан «Арарат»",
        "color": "#E8773F",
        "icon": "restaurant",
        "interests": 57344,
        "wishes": 322
    },
    "428": {
        "id": 428,
        "coordinates": [
            37.616854463229,
            55.825184431178
        ],
        "title": "Главный вход в парк «Останкино» со стороны музея-усадьбы",
        "title_short": "Главный вход в парк «Останкино...",
        "color": "#000000",
        "icon": "entrance"
    },
    "431": {
        "id": 431,
        "coordinates": [
            37.615065960262,
            55.83915818891
        ],
        "title": "Ресторан «Золотой колос»",
        "title_short": "Ресторан «Золотой колос»",
        "color": "#336AF7",
        "icon": "pavilion"
    },
    "432": {
        "id": 432,
        "coordinates": [
            37.622411146458,
            55.838097205589
        ],
        "title": "Павильон №41. Центр национальных конных традиций",
        "title_short": "Павильон №41. Центр национальн...",
        "color": "#336AF7",
        "icon": "pavilion"
    },
    "433": {
        "id": 433,
        "coordinates": [
            37.63203102,
            55.8387011
        ],
        "title": "КПП «Совхозный»",
        "title_short": "КПП «Совхозный»",
        "color": "#000000",
        "icon": "entry"
    },
    "435": {
        "id": 435,
        "coordinates": [
            37.623281658598,
            55.837028806556
        ],
        "title": "Выводной круг",
        "title_short": "Выводной круг",
        "color": "#F0AF18",
        "icon": "entertainment",
        "interests": 112
    },
    "436": {
        "id": 436,
        "coordinates": [
            37.634980200664,
            55.831152571386
        ],
        "title": "Ресторан «Остерия Трио»",
        "title_short": "Ресторан «Остерия Трио»",
        "color": "#E8773F",
        "icon": "restaurant",
        "interests": 57344,
        "wishes": 322
    },
    "437": {
        "id": 437,
        "coordinates": [
            37.618995127147,
            55.831339981478
        ],
        "title": "Ресторан «Оттепель»",
        "title_short": "Ресторан «Оттепель»",
        "color": "#E8773F",
        "icon": "restaurant",
        "interests": 57344,
        "wishes": 322
    },
    "438": {
        "id": 438,
        "coordinates": [
            37.62915569,
            55.84029154
        ],
        "title": "КПП «1-й Лихоборский»",
        "title_short": "КПП «1-й Лихоборский»",
        "color": "#000000",
        "icon": "entry"
    },
    "439": {
        "id": 439,
        "coordinates": [
            37.62668806,
            55.83851434
        ],
        "title": "Ресторан «Рыбацкая деревня»",
        "title_short": "Ресторан «Рыбацкая деревня»",
        "color": "#E8773F",
        "icon": "restaurant",
        "interests": 57344,
        "wishes": 322
    },
    "440": {
        "id": 440,
        "coordinates": [
            37.60254818,
            55.8237213
        ],
        "title": "Вход в парк «Останкино» со стороны телецентра",
        "title_short": "Вход в парк «Останкино» со сто...",
        "color": "#000000",
        "icon": "entrance"
    },
    "441": {
        "id": 441,
        "coordinates": [
            37.623877103016,
            55.831880786629
        ],
        "title": "Рязанский участок",
        "title_short": "Рязанский участок",
        "color": "#59B36A",
        "icon": "green-zone",
        "interests": 2031616,
        "wishes": 321
    },
    "442": {
        "id": 442,
        "coordinates": [
            37.60130087,
            55.8297587
        ],
        "title": "Вход в парк «Останкино» со стороны остановки «Улица Академика Комарова»",
        "title_short": "Вход в парк «Останкино» со сто...",
        "color": "#000000",
        "icon": "entrance"
    },
    "443": {
        "id": 443,
        "coordinates": [
            37.61599141,
            55.8293861
        ],
        "title": "Садовый пруд",
        "title_short": "Садовый пруд",
        "color": "#59B36A",
        "icon": "pond",
        "interests": 524288,
        "wishes": 321
    },
    "444": {
        "id": 444,
        "coordinates": [
            37.60907561,
            55.82373435
        ],
        "title": "Вход в парк «Останкино» со стороны Дворцового (Останкинского) пруда",
        "title_short": "Вход в парк «Останкино» со сто...",
        "color": "#000000",
        "icon": "entrance"
    },
    "445": {
        "id": 445,
        "coordinates": [
            37.60204393,
            55.8262344
        ],
        "title": "Вход в парк «Останкино» со стороны Ботанической улицы",
        "title_short": "Вход в парк «Останкино» со сто...",
        "color": "#000000",
        "icon": "entrance"
    },
    "446": {
        "id": 446,
        "coordinates": [
            37.638540878296,
            55.82738437773
        ],
        "title": "Северная петля Кольцевой дороги",
        "title_short": "Северная петля Кольцевой дороги",
        "color": "#59B36A",
        "icon": "green-zone",
        "interests": 2031616,
        "wishes": 321
    },
    "448": {
        "id": 448,
        "coordinates": [
            37.63583976,
            55.82883773
        ],
        "title": "Северный розарий",
        "title_short": "Северный розарий",
        "color": "#59B36A",
        "icon": "green-zone",
        "interests": 2031616,
        "wishes": 321
    },
    "449": {
        "id": 449,
        "coordinates": [
            37.640030353991,
            55.82807372094
        ],
        "title": "Северный сквер",
        "title_short": "Северный сквер",
        "color": "#59B36A",
        "icon": "green-zone",
        "interests": 2031616,
        "wishes": 321
    },
    "451": {
        "id": 451,
        "coordinates": [
            37.616812172089,
            55.835753066167
        ],
        "title": "Сирингарий",
        "title_short": "Сирингарий",
        "color": "#59B36A",
        "icon": "green-zone",
        "interests": 2031616,
        "wishes": 321
    },
    "453": {
        "id": 453,
        "coordinates": [
            37.60276616,
            55.8238579
        ],
        "title": "Сквер у главного входа в парк «Останкино» со стороны телецентра",
        "title_short": "Сквер у главного входа в парк ...",
        "color": "#59B36A",
        "icon": "green-zone",
        "interests": 2031616,
        "wishes": 321
    },
    "457": {
        "id": 457,
        "coordinates": [
            37.62870768154,
            55.827937657185
        ],
        "title": "Сквер юннатов",
        "title_short": "Сквер юннатов",
        "color": "#59B36A",
        "icon": "green-zone",
        "interests": 2031616,
        "wishes": 321
    },
    "460": {
        "id": 460,
        "coordinates": [
            37.606786074443,
            55.825721940687
        ],
        "title": "Стадион в парке «Останкино»",
        "title_short": "Стадион в парке «Останкино»",
        "color": "#7849DC",
        "icon": "sports-ground",
        "interests": 16778752
    },
    "461": {
        "id": 461,
        "coordinates": [
            37.6130088,
            55.8350802
        ],
        "title": "Универсальная спортивная площадка для игры в мини-футбол и стритбол",
        "title_short": "Универсальная спортивная площа...",
        "color": "#7849DC",
        "icon": "sports-ground",
        "interests": 16778752
    },
    "462": {
        "id": 462,
        "coordinates": [
            37.632385071902,
            55.832495088033
        ],
        "title": "Транзитный сквер",
        "title_short": "Транзитный сквер",
        "color": "#59B36A",
        "icon": "green-zone",
        "interests": 2031616,
        "wishes": 321
    },
    "463": {
        "id": 463,
        "coordinates": [
            37.60531103,
            55.82537462
        ],
        "title": "Беседка",
        "title_short": "Беседка",
        "color": "#59B36A",
        "icon": "picnic",
        "interests": 32768,
        "wishes": 321
    },
    "467": {
        "id": 467,
        "coordinates": [
            37.618131640639,
            55.82878593791
        ],
        "title": "Танцплощадка в парке «Останкино»",
        "title_short": "Танцплощадка в парке «Останкино»",
        "color": "#F0AF18",
        "icon": "entertainment",
        "interests": 112
    },
    "468": {
        "id": 468,
        "coordinates": [
            37.612862110384,
            55.832944106472
        ],
        "title": "Дубовая роща",
        "title_short": "Дубовая роща",
        "color": "#59B36A",
        "icon": "green-zone",
        "interests": 2031616,
        "wishes": 321
    },
    "473": {
        "id": 473,
        "coordinates": [
            37.630738377409,
            55.826664158019
        ],
        "title": "Арка Южного входа",
        "title_short": "Арка Южного входа",
        "color": "#000000",
        "icon": "entrance"
    },
    "474": {
        "id": 474,
        "coordinates": [
            37.63752271,
            55.83077656
        ],
        "title": "Арка Северного входа",
        "title_short": "Арка Северного входа",
        "color": "#000000",
        "icon": "entrance"
    },
    "476": {
        "id": 476,
        "coordinates": [
            37.62052202741,
            55.834797189359
        ],
        "title": "Кафе «Мороженое»",
        "title_short": "Кафе «Мороженое»",
        "color": "#E8773F",
        "icon": "restaurant",
        "interests": 57344,
        "wishes": 322
    },
    "477": {
        "id": 477,
        "coordinates": [
            37.614398184418,
            55.828623561984
        ],
        "title": "Ресторан «Лав»",
        "title_short": "Ресторан «Лав»",
        "color": "#E8773F",
        "icon": "restaurant",
        "interests": 57344,
        "wishes": 322
    },
    "478": {
        "id": 478,
        "coordinates": [
            37.620295096278,
            55.830943810883
        ],
        "title": "«Детское посольство»",
        "title_short": "«Детское посольство»",
        "color": "#F0AF18",
        "icon": "entertainment",
        "interests": 112
    },
    "583": {
        "id": 583,
        "coordinates": [
            37.617971512877,
            55.836113262239
        ],
        "title": "Сочинская горка",
        "title_short": "Сочинская горка",
        "color": "#59B36A",
        "icon": "green-zone",
        "interests": 2031616,
        "wishes": 321
    },
    "612": {
        "id": 612,
        "coordinates": [
            37.623107747656,
            55.835419931738
        ],
        "title": "Банкомат в павильоне №55",
        "title_short": "Банкомат в павильоне №55",
        "color": "#000000",
        "icon": "atm"
    },
    "615": {
        "id": 615,
        "coordinates": [
            37.628299019478,
            55.830517990528
        ],
        "title": "Банкомат в павильоне №12",
        "title_short": "Банкомат в павильоне №12",
        "color": "#000000",
        "icon": "atm"
    },
    "616": {
        "id": 616,
        "coordinates": [
            37.619014396667,
            55.832985959411
        ],
        "title": "Банкомат в «Москвариуме»",
        "title_short": "Банкомат в «Москвариуме»",
        "color": "#000000",
        "icon": "atm"
    },
    "2044": {
        "id": 2044,
        "coordinates": [
            37.628075774381,
            55.835645911311
        ],
        "title": "Летний кинотеатр-лекторий",
        "title_short": "Летний кинотеатр-лекторий",
        "color": "#F0AF18",
        "icon": "entertainment",
        "interests": 112
    },
    "2046": {
        "id": 2046,
        "coordinates": [
            37.621499812052,
            55.835307674463
        ],
        "title": "Кафе «Космос»",
        "title_short": "Кафе «Космос»",
        "color": "#E8773F",
        "icon": "restaurant",
        "interests": 57344,
        "wishes": 322
    },
    "2047": {
        "id": 2047,
        "coordinates": [
            37.6121238348,
            55.835514877211
        ],
        "title": "Вейк-парк DROP PARK VDNH",
        "title_short": "Вейк-парк DROP PARK VDNH",
        "color": "#F0AF18",
        "icon": "entertainment",
        "interests": 112
    },
    "2238": {
        "id": 2238,
        "coordinates": [
            37.638187238097,
            55.827167635241
        ],
        "title": "Велопрокат",
        "title_short": "Велопрокат",
        "color": "#F0AF18",
        "icon": "hire"
    },
    "2265": {
        "id": 2265,
        "coordinates": [
            37.640443,
            55.827043
        ],
        "title": "Туалет",
        "title_short": "Туалет",
        "color": "#000000",
        "icon": "wc",
        "interests": 4194304,
        "wishes": 385
    },
    "2266": {
        "id": 2266,
        "coordinates": [
            37.636095,
            55.824767
        ],
        "title": "Туалет",
        "title_short": "Туалет",
        "color": "#000000",
        "icon": "wc",
        "interests": 4194304,
        "wishes": 385
    },
    "2268": {
        "id": 2268,
        "coordinates": [
            37.634722107644,
            55.832026672378
        ],
        "title": "Туалет",
        "title_short": "Туалет",
        "color": "#000000",
        "icon": "wc",
        "interests": 4194304,
        "wishes": 385
    },
    "2269": {
        "id": 2269,
        "coordinates": [
            37.629020046535,
            55.836692594398
        ],
        "title": "Туалет строение 354",
        "title_short": "Туалет строение 354",
        "color": "#000000",
        "icon": "wc",
        "interests": 4194304,
        "wishes": 385
    },
    "2270": {
        "id": 2270,
        "coordinates": [
            37.625061106029,
            55.837435214456
        ],
        "title": "Туалет",
        "title_short": "Туалет",
        "color": "#000000",
        "icon": "wc",
        "interests": 4194304,
        "wishes": 385
    },
    "2271": {
        "id": 2271,
        "coordinates": [
            37.627216419078,
            55.8356232138
        ],
        "title": "Туалет",
        "title_short": "Туалет",
        "color": "#000000",
        "icon": "wc",
        "interests": 4194304,
        "wishes": 385
    },
    "2272": {
        "id": 2272,
        "coordinates": [
            37.624207034874,
            55.83534054493
        ],
        "title": "Туалет",
        "title_short": "Туалет",
        "color": "#000000",
        "icon": "wc",
        "interests": 4194304,
        "wishes": 385
    },
    "2273": {
        "id": 2273,
        "coordinates": [
            37.623629588446,
            55.832176591956
        ],
        "title": "Туалет",
        "title_short": "Туалет",
        "color": "#000000",
        "icon": "wc",
        "interests": 4194304,
        "wishes": 385
    },
    "2296": {
        "id": 2296,
        "coordinates": [
            37.613328090908,
            55.828173401569
        ],
        "title": "Комната матери и ребенка",
        "title_short": "Комната матери и ребенка",
        "color": "#000000",
        "icon": "wc",
        "interests": 4194304,
        "wishes": 385
    },
    "2297": {
        "id": 2297,
        "coordinates": [
            37.608879,
            55.829841
        ],
        "title": "Комната матери и ребенка",
        "title_short": "Комната матери и ребенка",
        "color": "#000000",
        "icon": "wc",
        "interests": 4194304,
        "wishes": 385
    },
    "2304": {
        "id": 2304,
        "coordinates": [
            37.609336413957,
            55.827422231524
        ],
        "title": "Туалет",
        "title_short": "Туалет",
        "color": "#000000",
        "icon": "wc",
        "interests": 4194304,
        "wishes": 385
    },
    "2305": {
        "id": 2305,
        "coordinates": [
            37.61796188064,
            55.829156941824
        ],
        "title": "Туалет",
        "title_short": "Туалет",
        "color": "#000000",
        "icon": "wc",
        "interests": 4194304,
        "wishes": 385
    },
    "2306": {
        "id": 2306,
        "coordinates": [
            37.617677098317,
            55.825318831722
        ],
        "title": "Туалетный модуль",
        "title_short": "Туалетный модуль",
        "color": "#000000",
        "icon": "wc",
        "interests": 4194304,
        "wishes": 385
    },
    "2307": {
        "id": 2307,
        "coordinates": [
            37.601556514289,
            55.829696191464
        ],
        "title": "Туалетный модуль",
        "title_short": "Туалетный модуль",
        "color": "#000000",
        "icon": "wc",
        "interests": 4194304,
        "wishes": 385
    },
    "2308": {
        "id": 2308,
        "coordinates": [
            37.637262080695,
            55.827658072595
        ],
        "title": "Туалетный модуль",
        "title_short": "Туалетный модуль",
        "color": "#000000",
        "icon": "wc",
        "interests": 4194304,
        "wishes": 385
    },
    "2310": {
        "id": 2310,
        "coordinates": [
            37.635497187163,
            55.832694295626
        ],
        "title": "Туалетный модуль",
        "title_short": "Туалетный модуль",
        "color": "#000000",
        "icon": "wc",
        "interests": 4194304,
        "wishes": 385
    },
    "2311": {
        "id": 2311,
        "coordinates": [
            37.630476091887,
            55.834686864759
        ],
        "title": "Туалетный модуль",
        "title_short": "Туалетный модуль",
        "color": "#000000",
        "icon": "wc",
        "interests": 4194304,
        "wishes": 385
    },
    "2312": {
        "id": 2312,
        "coordinates": [
            37.613402439275,
            55.83858755391
        ],
        "title": "Туалетный модуль",
        "title_short": "Туалетный модуль",
        "color": "#000000",
        "icon": "wc",
        "interests": 4194304,
        "wishes": 385
    },
    "2313": {
        "id": 2313,
        "coordinates": [
            37.61638911629,
            55.82732542664
        ],
        "title": "Туалетный модуль",
        "title_short": "Туалетный модуль",
        "color": "#000000",
        "icon": "wc",
        "interests": 4194304,
        "wishes": 385
    },
    "2511": {
        "id": 2511,
        "coordinates": [
            37.616690907718,
            55.837614260962
        ],
        "title": "Лодочная станция «Алые паруса»",
        "title_short": "Лодочная станция «Алые паруса»",
        "color": "#F0AF18",
        "icon": "entertainment",
        "interests": 112
    },
    "2514": {
        "id": 2514,
        "coordinates": [
            37.627936,
            55.839517
        ],
        "title": "Парковка «P14»",
        "title_short": "Парковка «P14»",
        "color": "#000000",
        "icon": "parking"
    },
    "2516": {
        "id": 2516,
        "coordinates": [
            37.618564011703,
            55.833673236379
        ],
        "title": "Парковка «P16»",
        "title_short": "Парковка «P16»",
        "color": "#000000",
        "icon": "parking"
    },
    "2521": {
        "id": 2521,
        "coordinates": [
            37.620209029013,
            55.833698612676
        ],
        "title": "Нефтеград. Детская интерактивная площадка",
        "title_short": "Нефтеград. Детская интерактивн...",
        "color": "#59B36A",
        "icon": "playground",
        "interests": 112
    },
    "2743": {
        "id": 2743,
        "coordinates": [
            37.61896399597,
            55.832676260949
        ],
        "title": "Кофейня «Шоколадница»",
        "title_short": "Кофейня «Шоколадница»",
        "color": "#E8773F",
        "icon": "restaurant",
        "interests": 57344,
        "wishes": 322
    },
    "2744": {
        "id": 2744,
        "coordinates": [
            37.620791076038,
            55.833784383857
        ],
        "title": "Кафе «Дельфин»",
        "title_short": "Кафе «Дельфин»",
        "color": "#E8773F",
        "icon": "restaurant",
        "interests": 57344,
        "wishes": 322
    },
    "2748": {
        "id": 2748,
        "coordinates": [
            37.6348182924,
            55.832702988312
        ],
        "title": "Пекарня «Трдельник»",
        "title_short": "Пекарня «Трдельник»",
        "color": "#E8773F",
        "icon": "restaurant",
        "interests": 57344,
        "wishes": 322
    },
    "2749": {
        "id": 2749,
        "coordinates": [
            37.62470938851,
            55.834544897907
        ],
        "title": "Памятный знак «Работникам ВСХВ, погибшим на фронтах Великой Отечественной войны 1941-1945 гг.»",
        "title_short": "Памятный знак «Работникам ВСХВ...",
        "color": "#336AF7",
        "icon": "monument",
        "interests": 262144,
        "wishes": 321
    },
    "2776": {
        "id": 2776,
        "coordinates": [
            37.631537345926,
            55.833540479075
        ],
        "title": "Лаборатория мороженого",
        "title_short": "Лаборатория мороженого",
        "color": "#E8773F",
        "icon": "restaurant",
        "interests": 57344,
        "wishes": 322
    },
    "2878": {
        "id": 2878,
        "coordinates": [
            37.638079770508,
            55.826574113174
        ],
        "title": "Музей ВДНХ",
        "title_short": "Музей ВДНХ",
        "color": "#336AF7",
        "icon": "museum",
        "interests": 13,
        "wishes": 384
    },
    "2879": {
        "id": 2879,
        "coordinates": [
            37.636810539196,
            55.82585923382
        ],
        "title": "Инфоцентр в арке Главного входа",
        "title_short": "Инфоцентр в арке Главного входа",
        "color": "#000000",
        "icon": "info"
    },
    "2901": {
        "id": 2901,
        "coordinates": [
            37.613747522717,
            55.839352875315
        ],
        "title": "Большая прогулочная аллея",
        "title_short": "Большая прогулочная аллея",
        "color": "#59B36A",
        "icon": "green-zone",
        "interests": 2031616,
        "wishes": 321
    },
    "2902": {
        "id": 2902,
        "coordinates": [
            37.619315600286,
            55.839258177466
        ],
        "title": "Экспозиция экосистем ",
        "title_short": "Экспозиция экосистем ",
        "color": "#59B36A",
        "icon": "green-zone",
        "interests": 2031616,
        "wishes": 321
    },
    "2903": {
        "id": 2903,
        "coordinates": [
            37.615467007219,
            55.837848191914
        ],
        "title": "Водная дорога и пляж",
        "title_short": "Водная дорога и пляж",
        "color": "#59B36A",
        "icon": "green-zone",
        "interests": 2031616,
        "wishes": 321
    },
    "2904": {
        "id": 2904,
        "coordinates": [
            37.614349056786,
            55.835744980485
        ],
        "title": "Зеленый лабиринт",
        "title_short": "Зеленый лабиринт",
        "color": "#59B36A",
        "icon": "green-zone",
        "interests": 2031616,
        "wishes": 321
    },
    "2906": {
        "id": 2906,
        "coordinates": [
            37.611642572749,
            55.833072293919
        ],
        "title": "Экотропа",
        "title_short": "Экотропа",
        "color": "#59B36A",
        "icon": "green-zone",
        "interests": 2031616,
        "wishes": 321
    },
    "2907": {
        "id": 2907,
        "coordinates": [
            37.618905264288,
            55.834379767574
        ],
        "title": "Большая картина полей",
        "title_short": "Большая картина полей",
        "color": "#59B36A",
        "icon": "green-zone",
        "interests": 2031616,
        "wishes": 321
    },
    "2908": {
        "id": 2908,
        "coordinates": [
            37.616378770031,
            55.831788188689
        ],
        "title": "Зал игp",
        "title_short": "Зал игp",
        "color": "#59B36A",
        "icon": "green-zone",
        "interests": 2031616,
        "wishes": 321
    },
    "2909": {
        "id": 2909,
        "coordinates": [
            37.619397093362,
            55.831766063125
        ],
        "title": "Театральный зал",
        "title_short": "Театральный зал",
        "color": "#59B36A",
        "icon": "green-zone",
        "interests": 2031616,
        "wishes": 321
    },
    "2910": {
        "id": 2910,
        "coordinates": [
            37.618206192559,
            55.831705678909
        ],
        "title": "Зал для чтения",
        "title_short": "Зал для чтения",
        "color": "#59B36A",
        "icon": "green-zone",
        "interests": 2031616,
        "wishes": 321
    },
    "2968": {
        "id": 2968,
        "coordinates": [
            37.63677040383,
            55.825717776566
        ],
        "title": "Туалет и комната матери и ребенка в левом крыле арки Главного входа",
        "title_short": "Туалет и комната матери и ребе...",
        "color": "#000000",
        "icon": "wc",
        "interests": 4194304,
        "wishes": 385
    },
    "2970": {
        "id": 2970,
        "coordinates": [
            37.617956595788,
            55.832971429319
        ],
        "title": "Туалеты и комнаты матери и ребенка в «Москвариуме»",
        "title_short": "Туалеты и комнаты матери и реб...",
        "color": "#000000",
        "icon": "wc",
        "interests": 4194304,
        "wishes": 385
    },
    "2980": {
        "id": 2980,
        "coordinates": [
            37.618185552143,
            55.836631461323
        ],
        "title": "Кафе «Лето»",
        "title_short": "Кафе «Лето»",
        "color": "#336AF7",
        "icon": "pavilion"
    },
    "2986": {
        "id": 2986,
        "coordinates": [
            37.63692082405,
            55.825967543139
        ],
        "title": "Сувенирный магазин в арке Главного входа",
        "title_short": "Сувенирный магазин в арке Глав...",
        "color": "#60AFA9",
        "icon": "souvenirs"
    },
    "2990": {
        "id": 2990,
        "coordinates": [
            37.626568812888,
            55.833002395475
        ],
        "title": "Площадка для бадминтона и настольного тенниса",
        "title_short": "Площадка для бадминтона и наст...",
        "color": "#7849DC",
        "icon": "sports-ground",
        "interests": 16778752
    },
    "3108": {
        "id": 3108,
        "coordinates": [
            37.609469870435,
            55.82534291673
        ],
        "title": "Щелкановская аллея",
        "title_short": "Щелкановская аллея",
        "color": "#59B36A",
        "icon": "green-zone",
        "interests": 2031616,
        "wishes": 321
    },
    "3196": {
        "id": 3196,
        "coordinates": [
            37.621591109594,
            55.83385520966
        ],
        "title": "Туалет",
        "title_short": "Туалет",
        "color": "#000000",
        "icon": "wc",
        "interests": 4194304,
        "wishes": 385
    },
    "3197": {
        "id": 3197,
        "coordinates": [
            37.618543338122,
            55.837755200402
        ],
        "title": "Туалет",
        "title_short": "Туалет",
        "color": "#000000",
        "icon": "wc",
        "interests": 4194304,
        "wishes": 385
    },
    "3203": {
        "id": 3203,
        "coordinates": [
            37.613182152619,
            55.836055058976
        ],
        "title": "Смотровая площадка в Ландшафтном парке",
        "title_short": "Смотровая площадка в Ландшафтн...",
        "color": "#59B36A",
        "icon": "green-zone",
        "interests": 2031616,
        "wishes": 321
    },
    "3222": {
        "id": 3222,
        "coordinates": [
            37.624312498133,
            55.836993699953
        ],
        "title": "Кофейная лаборатория «Смарт кофе»",
        "title_short": "Кофейная лаборатория «Смарт кофе»",
        "color": "#E8773F",
        "icon": "restaurant",
        "interests": 57344,
        "wishes": 322
    },
    "3261": {
        "id": 3261,
        "coordinates": [
            37.62735969421,
            55.836302489914
        ],
        "title": "Арт-резиденция музея «Гараж»",
        "title_short": "Арт-резиденция музея «Гараж»",
        "color": "#F0AF18",
        "icon": "workshop",
        "interests": 384,
        "wishes": 128
    },
    "3270": {
        "id": 3270,
        "coordinates": [
            37.613752187742,
            55.834580023783
        ],
        "title": "Корейский стрит-фуд «Пян-се»",
        "title_short": "Корейский стрит-фуд «Пян-се»",
        "color": "#E8773F",
        "icon": "restaurant",
        "interests": 57344,
        "wishes": 322
    },
    "3272": {
        "id": 3272,
        "coordinates": [
            37.61971902018,
            55.835408527011
        ],
        "title": "Детская площадка за павильоном №34",
        "title_short": "Детская площадка за павильоном №34",
        "color": "#59B36A",
        "icon": "playground",
        "interests": 112
    },
    "3291": {
        "id": 3291,
        "coordinates": [
            37.625203091055,
            55.836397391321
        ],
        "title": "Карамельная мануфактура",
        "title_short": "Карамельная мануфактура",
        "color": "#F0AF18",
        "icon": "workshop",
        "interests": 384,
        "wishes": 128
    },
    "3292": {
        "id": 3292,
        "coordinates": [
            37.625537928306,
            55.836185905299
        ],
        "title": "Мастерская елочных игрушек Christmas Art",
        "title_short": "Мастерская елочных игрушек Chr...",
        "color": "#F0AF18",
        "icon": "workshop",
        "interests": 384,
        "wishes": 128
    },
    "3295": {
        "id": 3295,
        "coordinates": [
            37.626944750623,
            55.836999017306
        ],
        "title": "Фотостудия BestMemories",
        "title_short": "Фотостудия BestMemories",
        "color": "#F0AF18",
        "icon": "workshop",
        "interests": 384,
        "wishes": 128
    },
    "3296": {
        "id": 3296,
        "coordinates": [
            37.626186597344,
            55.837452375358
        ],
        "title": "Мастерская высокой печати sixh",
        "title_short": "Мастерская высокой печати sixh",
        "color": "#F0AF18",
        "icon": "workshop",
        "interests": 384,
        "wishes": 128
    },
    "3300": {
        "id": 3300,
        "coordinates": [
            37.624001461416,
            55.837193222725
        ],
        "title": "Школа сыроделия Олеси Шевчук ",
        "title_short": "Школа сыроделия Олеси Шевчук ",
        "color": "#F0AF18",
        "icon": "workshop",
        "interests": 384,
        "wishes": 128
    },
    "3301": {
        "id": 3301,
        "coordinates": [
            37.624339567091,
            55.83766528076
        ],
        "title": "Мастерская и школа стекла",
        "title_short": "Мастерская и школа стекла",
        "color": "#F0AF18",
        "icon": "workshop",
        "interests": 384,
        "wishes": 128
    },
    "3315": {
        "id": 3315,
        "coordinates": [
            37.624076563269,
            55.837550055614
        ],
        "title": "Архитектурно-производственная мастерская Uniquely",
        "title_short": "Архитектурно-производственная ...",
        "color": "#F0AF18",
        "icon": "workshop",
        "interests": 384,
        "wishes": 128
    },
    "3494": {
        "id": 3494,
        "coordinates": [
            37.622187045521,
            55.829030058535
        ],
        "title": "Остановка «Яндекс.Такси». Хованская улица",
        "title_short": "Остановка «Яндекс.Такси». Хова...",
        "color": "#000000",
        "icon": "taxi"
    },
    "3497": {
        "id": 3497,
        "coordinates": [
            37.628206403208,
            55.839916051521
        ],
        "title": "Остановка «Яндекс.Такси». Лихоборский проезд",
        "title_short": "Остановка «Яндекс.Такси». Лихо...",
        "color": "#000000",
        "icon": "taxi"
    },
    "3499": {
        "id": 3499,
        "coordinates": [
            37.61930188466,
            55.832346721826
        ],
        "title": "Остановка «Яндекс.Такси». Театральный проезд",
        "title_short": "Остановка «Яндекс.Такси». Теат...",
        "color": "#000000",
        "icon": "taxi"
    },
    "3500": {
        "id": 3500,
        "coordinates": [
            37.626468948698,
            55.835245367785
        ],
        "title": "Остановка «Яндекс.Такси». Липовая аллея",
        "title_short": "Остановка «Яндекс.Такси». Липо...",
        "color": "#000000",
        "icon": "taxi"
    },
    "3501": {
        "id": 3501,
        "coordinates": [
            37.637216511622,
            55.83060227088
        ],
        "title": "Остановка «Яндекс.Такси». Октябрьская площадь",
        "title_short": "Остановка «Яндекс.Такси». Октя...",
        "color": "#000000",
        "icon": "taxi"
    },
    "3507": {
        "id": 3507,
        "coordinates": [
            37.625698825568,
            55.839765852822
        ],
        "title": "Ресторан «Ферма»",
        "title_short": "Ресторан «Ферма»",
        "color": "#E8773F",
        "icon": "restaurant",
        "interests": 57344,
        "wishes": 322
    },
    "3581": {
        "id": 3581,
        "coordinates": [
            37.629229298606,
            55.831480279736
        ],
        "title": "Самый большой каток Москвы",
        "title_short": "Самый большой каток Москвы",
        "color": "#F0AF18",
        "icon": "entertainment",
        "interests": 112
    },
    "3595": {
        "id": 3595,
        "coordinates": [
            37.624082643621,
            55.837679428026
        ],
        "title": "Мастерская «Симфония фарфора»",
        "title_short": "Мастерская «Симфония фарфора»",
        "color": "#F0AF18",
        "icon": "workshop",
        "interests": 384,
        "wishes": 128
    },
    "3619": {
        "id": 3619,
        "coordinates": [
            37.625370978511,
            55.833751986326
        ],
        "title": "Тюбинговая горка",
        "title_short": "Тюбинговая горка",
        "color": "#F0AF18",
        "icon": "entertainment",
        "interests": 112
    },
    "3626": {
        "id": 3626,
        "coordinates": [
            37.634902901098,
            55.832427980753
        ],
        "title": "Автобусная остановка. Грушевая аллея",
        "title_short": "Автобусная остановка. Грушевая...",
        "color": "#000000",
        "icon": "bus"
    },
    "3627": {
        "id": 3627,
        "coordinates": [
            37.634693672568,
            55.832636982376
        ],
        "title": "Автобусная остановка. Дом культуры",
        "title_short": "Автобусная остановка. Дом культуры",
        "color": "#000000",
        "icon": "bus"
    },
    "3628": {
        "id": 3628,
        "coordinates": [
            37.628934275937,
            55.836037443843
        ],
        "title": "Автобусная остановка. Павильон № 57. Исторический парк «Россия — моя история»",
        "title_short": "Автобусная остановка. Павильон...",
        "color": "#000000",
        "icon": "bus"
    },
    "3629": {
        "id": 3629,
        "coordinates": [
            37.627388391167,
            55.836848142249
        ],
        "title": "Автобусная остановка. Дворец бракосочетания",
        "title_short": "Автобусная остановка. Дворец б...",
        "color": "#000000",
        "icon": "bus"
    },
    "3630": {
        "id": 3630,
        "coordinates": [
            37.627165071426,
            55.839348361175
        ],
        "title": "Автобусная остановка. Городская ферма",
        "title_short": "Автобусная остановка. Городска...",
        "color": "#000000",
        "icon": "bus"
    },
    "3631": {
        "id": 3631,
        "coordinates": [
            37.626136736913,
            55.841059817822
        ],
        "title": "Автобусная остановка. Лихоборская",
        "title_short": "Автобусная остановка. Лихоборская",
        "color": "#000000",
        "icon": "bus"
    },
    "3640": {
        "id": 3640,
        "coordinates": [
            37.634681550408,
            55.833518880944
        ],
        "title": "Архитектурно-художественная студия Artdomus",
        "title_short": "Архитектурно-художественная ст...",
        "color": "#F0AF18",
        "icon": "workshop",
        "interests": 384,
        "wishes": 128
    },
    "3641": {
        "id": 3641,
        "coordinates": [
            37.634805265307,
            55.833348486951
        ],
        "title": "Школа эстрадного вокала «Голоса»",
        "title_short": "Школа эстрадного вокала «Голоса»",
        "color": "#F0AF18",
        "icon": "entertainment",
        "interests": 112
    },
    "3643": {
        "id": 3643,
        "coordinates": [
            37.634450650441,
            55.833396813719
        ],
        "title": "Театральная студия «Чайка»",
        "title_short": "Театральная студия «Чайка»",
        "color": "#F0AF18",
        "icon": "entertainment",
        "interests": 112
    },
    "3694": {
        "id": 3694,
        "coordinates": [
            37.625911757774,
            55.832147894582
        ],
        "title": "Бульбяная",
        "title_short": "Бульбяная",
        "color": "#E8773F",
        "icon": "restaurant",
        "interests": 57344,
        "wishes": 322
    },
    "3711": {
        "id": 3711,
        "coordinates": [
            37.624234725493,
            55.836891038395
        ],
        "title": "Цветочная мастерская «Май-Май»",
        "title_short": "Цветочная мастерская «Май-Май»",
        "color": "#F0AF18",
        "icon": "workshop",
        "interests": 384,
        "wishes": 128
    },
    "3712": {
        "id": 3712,
        "coordinates": [
            37.62604002109,
            55.837572737239
        ],
        "title": "Студия витражей и мозаики Moscow ART Glass",
        "title_short": "Студия витражей и мозаики Mosc...",
        "color": "#F0AF18",
        "icon": "workshop",
        "interests": 384,
        "wishes": 128
    },
    "3713": {
        "id": 3713,
        "coordinates": [
            37.626529788723,
            55.836696076478
        ],
        "title": "Косметическая лаборатория Pure Love",
        "title_short": "Косметическая лаборатория Pure Love",
        "color": "#F0AF18",
        "icon": "workshop",
        "interests": 384,
        "wishes": 128
    },
    "3714": {
        "id": 3714,
        "coordinates": [
            37.623948990702,
            55.836925777452
        ],
        "title": "Мастерская «Особая керамика»",
        "title_short": "Мастерская «Особая керамика»",
        "color": "#F0AF18",
        "icon": "workshop",
        "interests": 384,
        "wishes": 128
    },
    "3957": {
        "id": 3957,
        "coordinates": [
            37.636977551891,
            55.826024370674
        ],
        "title": "Кофейня Vigor Maker",
        "title_short": "Кофейня Vigor Maker",
        "color": "#E8773F",
        "icon": "restaurant",
        "interests": 57344,
        "wishes": 322
    },
    "4070": {
        "id": 4070,
        "coordinates": [
            37.62407031233,
            55.837389139708
        ],
        "title": "Творческая мастерская Марии Багмет",
        "title_short": "Творческая мастерская Марии Багмет",
        "color": "#F0AF18",
        "icon": "workshop",
        "interests": 384,
        "wishes": 128
    },
    "4089": {
        "id": 4089,
        "coordinates": [
            37.624017131247,
            55.83706859943
        ],
        "title": "Кожевенная мастерская Bottega Berto",
        "title_short": "Кожевенная мастерская Bottega Berto",
        "color": "#F0AF18",
        "icon": "workshop",
        "interests": 384,
        "wishes": 128
    },
    "4098": {
        "id": 4098,
        "coordinates": [
            37.589914945146,
            55.844162859195
        ],
        "title": "Концертный зал Главного ботанического сада имени Н.В. Цицина РАН",
        "title_short": "Концертный зал Главного ботани...",
        "color": "#F0AF18",
        "icon": "entertainment",
        "interests": 112
    },
    "4309": {
        "id": 4309,
        "coordinates": [
            37.618867914996,
            55.830232535367
        ],
        "title": "Вендинговый аппарат",
        "title_short": "Вендинговый аппарат",
        "color": "#E8773F",
        "icon": "vending",
        "interests": 32768,
        "wishes": 322
    },
    "4311": {
        "id": 4311,
        "coordinates": [
            37.62316452517,
            55.830345829736
        ],
        "title": "Вендинговый аппарат",
        "title_short": "Вендинговый аппарат",
        "color": "#E8773F",
        "icon": "vending",
        "interests": 32768,
        "wishes": 322
    },
    "4313": {
        "id": 4313,
        "coordinates": [
            37.630570774812,
            55.834372052547
        ],
        "title": "Вендинговый аппарат",
        "title_short": "Вендинговый аппарат",
        "color": "#E8773F",
        "icon": "vending",
        "interests": 32768,
        "wishes": 322
    },
    "4432": {
        "id": 4432,
        "coordinates": [
            37.624703999643,
            55.832464208773
        ],
        "title": "Павильон №19. «Атом»",
        "title_short": "Павильон №19. «Атом»",
        "color": "#336AF7",
        "icon": "pavilion"
    },
    "4435": {
        "id": 4435,
        "coordinates": [
            37.626575101349,
            55.835480382067
        ],
        "title": "Вендинговый аппарат",
        "title_short": "Вендинговый аппарат",
        "color": "#E8773F",
        "icon": "vending",
        "interests": 32768,
        "wishes": 322
    },
    "4436": {
        "id": 4436,
        "coordinates": [
            37.62635683659,
            55.837702585923
        ],
        "title": "Вендинговый аппарат",
        "title_short": "Вендинговый аппарат",
        "color": "#E8773F",
        "icon": "vending",
        "interests": 32768,
        "wishes": 322
    },
    "4452": {
        "id": 4452,
        "coordinates": [
            37.63586613955,
            55.826134072419
        ],
        "title": "Велопрокат",
        "title_short": "Велопрокат",
        "color": "#F0AF18",
        "icon": "hire"
    },
    "4453": {
        "id": 4453,
        "coordinates": [
            37.625557404477,
            55.828611460643
        ],
        "title": "Велопрокат",
        "title_short": "Велопрокат",
        "color": "#F0AF18",
        "icon": "hire"
    },
    "4454": {
        "id": 4454,
        "coordinates": [
            37.624470741155,
            55.840620640122
        ],
        "title": "Велопрокат",
        "title_short": "Велопрокат",
        "color": "#F0AF18",
        "icon": "hire"
    },
    "4457": {
        "id": 4457,
        "coordinates": [
            37.625657311552,
            55.839177045744
        ],
        "title": "Прокат электросамокатов «Рушеринг»",
        "title_short": "Прокат электросамокатов «Рушеринг»",
        "color": "#F0AF18",
        "icon": "hire"
    },
    "4458": {
        "id": 4458,
        "coordinates": [
            37.624398349696,
            55.837349088711
        ],
        "title": "Прокат электросамокатов «Рушеринг»",
        "title_short": "Прокат электросамокатов «Рушеринг»",
        "color": "#F0AF18",
        "icon": "hire"
    },
    "4459": {
        "id": 4459,
        "coordinates": [
            37.623117930168,
            55.83285224432
        ],
        "title": "Прокат электросамокатов «Рушеринг»",
        "title_short": "Прокат электросамокатов «Рушеринг»",
        "color": "#F0AF18",
        "icon": "hire"
    },
    "4460": {
        "id": 4460,
        "coordinates": [
            37.622502698475,
            55.83032351582
        ],
        "title": "Прокат электросамокатов «Рушеринг»",
        "title_short": "Прокат электросамокатов «Рушеринг»",
        "color": "#F0AF18",
        "icon": "hire"
    },
    "4461": {
        "id": 4461,
        "coordinates": [
            37.620635881001,
            55.833427238932
        ],
        "title": "Прокат электросамокатов «Рушеринг»",
        "title_short": "Прокат электросамокатов «Рушеринг»",
        "color": "#F0AF18",
        "icon": "hire"
    },
    "4462": {
        "id": 4462,
        "coordinates": [
            37.614248535508,
            55.833609750405
        ],
        "title": "Прокат электросамокатов «Рушеринг»",
        "title_short": "Прокат электросамокатов «Рушеринг»",
        "color": "#F0AF18",
        "icon": "hire"
    },
    "4474": {
        "id": 4474,
        "coordinates": [
            37.638125852177,
            55.827293884588
        ],
        "title": "Остановка электробуса. Арка Главного входа (северная петля)",
        "title_short": "Остановка электробуса. Арка Гл...",
        "color": "#000000",
        "icon": "bus"
    },
    "4476": {
        "id": 4476,
        "coordinates": [
            37.631042550533,
            55.834720630643
        ],
        "title": "Остановка электробуса. Техноград",
        "title_short": "Остановка электробуса. Техноград",
        "color": "#000000",
        "icon": "bus"
    },
    "4477": {
        "id": 4477,
        "coordinates": [
            37.624776005597,
            55.840565238143
        ],
        "title": "Остановка электробуса. Павильон №44 «Кролиководство»",
        "title_short": "Остановка электробуса. Павильо...",
        "color": "#000000",
        "icon": "bus"
    },
    "4478": {
        "id": 4478,
        "coordinates": [
            37.616500384958,
            55.840053456086
        ],
        "title": "Остановка электробуса. Музей кино",
        "title_short": "Остановка электробуса. Музей кино",
        "color": "#000000",
        "icon": "bus"
    },
    "4479": {
        "id": 4479,
        "coordinates": [
            37.612430468054,
            55.837175021771
        ],
        "title": "Остановка электробуса. Ботанический сад",
        "title_short": "Остановка электробуса. Ботанич...",
        "color": "#000000",
        "icon": "bus"
    },
    "4480": {
        "id": 4480,
        "coordinates": [
            37.614046834261,
            55.8345922339
        ],
        "title": "Остановка электробуса. Павильон №27 «Физкультура и спорт»",
        "title_short": "Остановка электробуса. Павильо...",
        "color": "#000000",
        "icon": "bus"
    },
    "4481": {
        "id": 4481,
        "coordinates": [
            37.614566440708,
            55.831691012187
        ],
        "title": "Остановка электробуса. Парк «Останкино»",
        "title_short": "Остановка электробуса. Парк «О...",
        "color": "#000000",
        "icon": "bus"
    },
    "4482": {
        "id": 4482,
        "coordinates": [
            37.614322095961,
            55.834373216061
        ],
        "title": "Остановка электробуса. Павильон №27 «Физкультура и спорт»",
        "title_short": "Остановка электробуса. Павильо...",
        "color": "#000000",
        "icon": "bus"
    },
    "4483": {
        "id": 4483,
        "coordinates": [
            37.618002016775,
            55.830371297849
        ],
        "title": "Остановка электробуса. Зелёный театр",
        "title_short": "Остановка электробуса. Зелёный...",
        "color": "#000000",
        "icon": "bus"
    },
    "4484": {
        "id": 4484,
        "coordinates": [
            37.617714014582,
            55.830608170887
        ],
        "title": "Остановка электробуса. Зелёный театр",
        "title_short": "Остановка электробуса. Зелёный...",
        "color": "#000000",
        "icon": "bus"
    },
    "4485": {
        "id": 4485,
        "coordinates": [
            37.623344382017,
            55.830069566634
        ],
        "title": "Остановка электробуса. Хованский вход",
        "title_short": "Остановка электробуса. Хованск...",
        "color": "#000000",
        "icon": "bus"
    },
    "4486": {
        "id": 4486,
        "coordinates": [
            37.622648684054,
            55.830255113358
        ],
        "title": "Остановка электробуса. Хованский вход",
        "title_short": "Остановка электробуса. Хованск...",
        "color": "#000000",
        "icon": "bus"
    },
    "4487": {
        "id": 4487,
        "coordinates": [
            37.627069113438,
            55.827793516013
        ],
        "title": "Остановка электробуса. Театр сказок",
        "title_short": "Остановка электробуса. Театр сказок",
        "color": "#000000",
        "icon": "bus"
    },
    "4488": {
        "id": 4488,
        "coordinates": [
            37.626759653573,
            55.828229690357
        ],
        "title": "Остановка электробуса. Театр сказок",
        "title_short": "Остановка электробуса. Театр сказок",
        "color": "#000000",
        "icon": "bus"
    },
    "4489": {
        "id": 4489,
        "coordinates": [
            37.63036621887,
            55.827424851536
        ],
        "title": "Остановка электробуса. Арка Южного входа",
        "title_short": "Остановка электробуса. Арка Юж...",
        "color": "#000000",
        "icon": "bus"
    },
    "4490": {
        "id": 4490,
        "coordinates": [
            37.631151100282,
            55.82756209851
        ],
        "title": "Остановка электробуса. Арка Южного входа",
        "title_short": "Остановка электробуса. Арка Юж...",
        "color": "#000000",
        "icon": "bus"
    },
    "4491": {
        "id": 4491,
        "coordinates": [
            37.635756816148,
            55.826082925057
        ],
        "title": "Остановка электробуса. Арка Главного входа (южная петля)",
        "title_short": "Остановка электробуса. Арка Гл...",
        "color": "#000000",
        "icon": "bus"
    },
    "4492": {
        "id": 4492,
        "coordinates": [
            37.630716997414,
            55.834752188233
        ],
        "title": "Остановка электробуса. Техноград",
        "title_short": "Остановка электробуса. Техноград",
        "color": "#000000",
        "icon": "bus"
    },
    "4493": {
        "id": 4493,
        "coordinates": [
            37.617760870038,
            55.837581365964
        ],
        "title": "Остановка электробуса. Золотой колос",
        "title_short": "Остановка электробуса. Золотой...",
        "color": "#000000",
        "icon": "bus"
    },
    "4515": {
        "id": 4515,
        "coordinates": [
            37.624227338271,
            55.827335090531
        ],
        "title": "Прокат электросамокатов «Рушеринг»",
        "title_short": "Прокат электросамокатов «Рушеринг»",
        "color": "#F0AF18",
        "icon": "hire"
    },
    "4516": {
        "id": 4516,
        "coordinates": [
            37.624275618033,
            55.827932954803
        ],
        "title": "Прокат электросамокатов «Рушеринг»",
        "title_short": "Прокат электросамокатов «Рушеринг»",
        "color": "#F0AF18",
        "icon": "hire"
    },
    "4517": {
        "id": 4517,
        "coordinates": [
            37.623454862074,
            55.828355681545
        ],
        "title": "Прокат электросамокатов «Рушеринг»",
        "title_short": "Прокат электросамокатов «Рушеринг»",
        "color": "#F0AF18",
        "icon": "hire"
    },
    "4549": {
        "id": 4549,
        "coordinates": [
            37.614025298958,
            55.833936212099
        ],
        "title": "Арт-композиция «Птицы»",
        "title_short": "Арт-композиция «Птицы»",
        "color": "#59B36A",
        "icon": "green-zone",
        "interests": 2031616,
        "wishes": 321
    },
    "4550": {
        "id": 4550,
        "coordinates": [
            37.620756570919,
            55.839419895514
        ],
        "title": "Кинетическая скульптура «Армадилло»",
        "title_short": "Кинетическая скульптура «Армадилло»",
        "color": "#59B36A",
        "icon": "green-zone",
        "interests": 2031616,
        "wishes": 321
    },
    "4551": {
        "id": 4551,
        "coordinates": [
            37.618815082101,
            55.838333837268
        ],
        "title": "Павильон №39. Кафе «Фонтан VIEW»",
        "title_short": "Павильон №39. Кафе «Фонтан VIEW»",
        "color": "#E8773F",
        "icon": "restaurant",
        "interests": 57344,
        "wishes": 322
    },
    "4648": {
        "id": 4648,
        "coordinates": [
            37.625038638115,
            55.83599588446
        ],
        "title": "Медовый домик",
        "title_short": "Медовый домик",
        "color": "#F0AF18",
        "icon": "workshop",
        "interests": 384,
        "wishes": 128
    },
    "4666": {
        "id": 4666,
        "coordinates": [
            37.628049414951,
            55.836728871628
        ],
        "title": "Арт-лофт «Чудеса»",
        "title_short": "Арт-лофт «Чудеса»",
        "color": "#F0AF18",
        "icon": "entertainment",
        "interests": 112
    },
    "4682": {
        "id": 4682,
        "coordinates": [
            37.624840154648,
            55.836646093793
        ],
        "title": "Дом комиксов «TAKAPULTA»",
        "title_short": "Дом комиксов «TAKAPULTA»",
        "color": "#F0AF18",
        "icon": "entertainment",
        "interests": 112
    },
    "4857": {
        "id": 4857,
        "coordinates": [
            37.622542787402,
            55.832591708187
        ],
        "title": "Игровая площадка Capital Group",
        "title_short": "Игровая площадка Capital Group",
        "color": "#59B36A",
        "icon": "playground",
        "interests": 112
    },
    "4923": {
        "id": 4923,
        "coordinates": [
            37.625122489857,
            55.83954012721
        ],
        "title": "Понтонный променад",
        "title_short": "Понтонный променад",
        "color": "#59B36A",
        "icon": "green-zone",
        "interests": 2031616,
        "wishes": 321
    },
    "4935": {
        "id": 4935,
        "coordinates": [
            37.627240589379,
            55.837877879022
        ],
        "title": "Сад молодоженов",
        "title_short": "Сад молодоженов",
        "color": "#59B36A",
        "icon": "green-zone",
        "interests": 2031616,
        "wishes": 321
    },
    "4975": {
        "id": 4975,
        "coordinates": [
            37.635370323553,
            55.829936503528
        ],
        "title": "Строение 457",
        "title_short": "Строение 457",
        "color": "#336AF7",
        "icon": "pavilion"
    },
    "5007": {
        "id": 5007,
        "coordinates": [
            37.636003153053,
            55.832944593481
        ],
        "title": "Прокат электросамокатов Urent",
        "title_short": "Прокат электросамокатов Urent",
        "color": "#F0AF18",
        "icon": "hire"
    },
    "5008": {
        "id": 5008,
        "coordinates": [
            37.637848512853,
            55.827334693598
        ],
        "title": "Прокат электросамокатов Urent",
        "title_short": "Прокат электросамокатов Urent",
        "color": "#F0AF18",
        "icon": "hire"
    },
    "5010": {
        "id": 5010,
        "coordinates": [
            37.623407499515,
            55.832775520819
        ],
        "title": "Прокат электросамокатов Urent",
        "title_short": "Прокат электросамокатов Urent",
        "color": "#F0AF18",
        "icon": "hire"
    },
    "5011": {
        "id": 5011,
        "coordinates": [
            37.622779051116,
            55.830250885098
        ],
        "title": "Прокат электросамокатов Urent",
        "title_short": "Прокат электросамокатов Urent",
        "color": "#F0AF18",
        "icon": "hire"
    },
    "5012": {
        "id": 5012,
        "coordinates": [
            37.615746299078,
            55.831974873441
        ],
        "title": "Прокат электросамокатов Urent",
        "title_short": "Прокат электросамокатов Urent",
        "color": "#F0AF18",
        "icon": "hire"
    },
    "5013": {
        "id": 5013,
        "coordinates": [
            37.612372080137,
            55.836859595414
        ],
        "title": "Прокат электросамокатов Urent",
        "title_short": "Прокат электросамокатов Urent",
        "color": "#F0AF18",
        "icon": "hire"
    },
    "5014": {
        "id": 5014,
        "coordinates": [
            37.631480137159,
            55.835099596076
        ],
        "title": "Прокат электросамокатов Urent",
        "title_short": "Прокат электросамокатов Urent",
        "color": "#F0AF18",
        "icon": "hire"
    },
    "5327": {
        "id": 5327,
        "coordinates": [
            37.61993294266,
            55.829974021782
        ],
        "title": "Кафе «РОСИЗО»",
        "title_short": "Кафе «РОСИЗО»",
        "color": "#E8773F",
        "icon": "restaurant",
        "interests": 57344,
        "wishes": 322
    },
    "5505": {
        "id": 5505,
        "coordinates": [
            37.614897389018,
            55.836178555765
        ],
        "title": "Ресторан «Все лень»",
        "title_short": "Ресторан «Все лень»",
        "color": "#E8773F",
        "icon": "restaurant",
        "interests": 57344,
        "wishes": 322
    },
    "5632": {
        "id": 5632,
        "coordinates": [
            37.631032382507,
            55.837430687509
        ],
        "title": "Парковка «P11»",
        "title_short": "Парковка «P11»",
        "color": "#000000",
        "icon": "parking"
    },
    "5663": {
        "id": 5663,
        "coordinates": [
            37.628476560429,
            55.835962455857
        ],
        "title": "Кафе «Ребрышки и крылышки»",
        "title_short": "Кафе «Ребрышки и крылышки»",
        "color": "#E8773F",
        "icon": "restaurant",
        "interests": 57344,
        "wishes": 322
    },
    "5669": {
        "id": 5669,
        "coordinates": [
            37.606617870821,
            55.824934046225
        ],
        "title": "Каток в парке «Останкино»",
        "title_short": "Каток в парке «Останкино»",
        "color": "#F0AF18",
        "icon": "entertainment",
        "interests": 112
    },
    "5872": {
        "id": 5872,
        "coordinates": [
            37.629787037954,
            55.832282667482
        ],
        "title": "Прокат детских квадроциклов и фэтбайков",
        "title_short": "Прокат детских квадроциклов и ...",
        "color": "#F0AF18",
        "icon": "hire"
    },
    "5980": {
        "id": 5980,
        "coordinates": [
            37.607166576229,
            55.824709320838
        ],
        "title": "Прокат беговых лыж",
        "title_short": "Прокат беговых лыж",
        "color": "#F0AF18",
        "icon": "hire"
    },
    "5981": {
        "id": 5981,
        "coordinates": [
            37.601676003022,
            55.829704721838
        ],
        "title": "Прокат беговых лыж",
        "title_short": "Прокат беговых лыж",
        "color": "#F0AF18",
        "icon": "hire"
    },
    "6313": {
        "id": 6313,
        "coordinates": [
            37.627807177661,
            55.829720989982
        ],
        "title": "Туалет",
        "title_short": "Туалет",
        "color": "#000000",
        "icon": "wc",
        "interests": 4194304,
        "wishes": 385
    },
    "6315": {
        "id": 6315,
        "coordinates": [
            37.623854119945,
            55.834955482595
        ],
        "title": "Инфоцентр у павильона №55",
        "title_short": "Инфоцентр у павильона №55",
        "color": "#000000",
        "icon": "info"
    },
    "6726": {
        "id": 6726,
        "coordinates": [
            37.633436344119,
            55.834629242922
        ],
        "title": "Фудкорт в комплексе «Техноград»",
        "title_short": "Фудкорт в комплексе «Техноград»",
        "color": "#E8773F",
        "icon": "restaurant",
        "interests": 57344,
        "wishes": 322
    },
    "6727": {
        "id": 6727,
        "coordinates": [
            37.632099132757,
            55.835129250005
        ],
        "title": "Кофе-поинт «Акжера»",
        "title_short": "Кофе-поинт «Акжера»",
        "color": "#E8773F",
        "icon": "restaurant",
        "interests": 57344,
        "wishes": 322
    },
    "6740": {
        "id": 6740,
        "coordinates": [
            37.64166,
            55.827805
        ],
        "title": "Парковка «P1»",
        "title_short": "Парковка «P1»",
        "color": "#000000",
        "icon": "parking"
    },
    "6741": {
        "id": 6741,
        "coordinates": [
            37.622666,
            55.829263
        ],
        "title": "Парковка «P18»",
        "title_short": "Парковка «P18»",
        "color": "#000000",
        "icon": "parking"
    },